$GPGGA,114411.553,4315.844,N,00255.431,W,1,12,1.0,0.0,M,0.0,M,,*70
$GPGSA,A,3,01,02,03,04,05,06,07,08,09,10,11,12,1.0,1.0,1.0*30
$GPRMC,114411.553,A,4315.844,N,00255.431,W,038.9,307.8,131219,000.0,W*63
$GPGGA,114412.553,4315.852,N,00255.441,W,1,12,1.0,0.0,M,0.0,M,,*73
$GPGSA,A,3,01,02,03,04,05,06,07,08,09,10,11,12,1.0,1.0,1.0*30
$GPRMC,114412.553,A,4315.852,N,00255.441,W,038.9,307.8,131219,000.0,W*60
$GPGGA,114413.553,4315.860,N,00255.451,W,1,12,1.0,0.0,M,0.0,M,,*72
$GPGSA,A,3,01,02,03,04,05,06,07,08,09,10,11,12,1.0,1.0,1.0*30
$GPRMC,114413.553,A,4315.860,N,00255.451,W,038.9,307.8,131219,000.0,W*61
$GPGGA,114414.553,4315.868,N,00255.461,W,1,12,1.0,0.0,M,0.0,M,,*7E
$GPGSA,A,3,01,02,03,04,05,06,07,08,09,10,11,12,1.0,1.0,1.0*30
$GPRMC,114414.553,A,4315.868,N,00255.461,W,038.9,307.8,131219,000.0,W*6D
$GPGGA,114415.553,4315.876,N,00255.471,W,1,12,1.0,0.0,M,0.0,M,,*71
$GPGSA,A,3,01,02,03,04,05,06,07,08,09,10,11,12,1.0,1.0,1.0*30
$GPRMC,114415.553,A,4315.876,N,00255.471,W,038.9,307.8,131219,000.0,W*62
$GPGGA,114416.553,4315.884,N,00255.481,W,1,12,1.0,0.0,M,0.0,M,,*70
$GPGSA,A,3,01,02,03,04,05,06,07,08,09,10,11,12,1.0,1.0,1.0*30
$GPRMC,114416.553,A,4315.884,N,00255.481,W,038.9,307.8,131219,000.0,W*63
$GPGGA,114417.553,4315.892,N,00255.492,W,1,12,1.0,0.0,M,0.0,M,,*74
$GPGSA,A,3,01,02,03,04,05,06,07,08,09,10,11,12,1.0,1.0,1.0*30
$GPRMC,114417.553,A,4315.892,N,00255.492,W,038.9,307.8,131219,000.0,W*67
$GPGGA,114418.553,4315.899,N,00255.502,W,1,12,1.0,0.0,M,0.0,M,,*78
$GPGSA,A,3,01,02,03,04,05,06,07,08,09,10,11,12,1.0,1.0,1.0*30
$GPRMC,114418.553,A,4315.899,N,00255.502,W,038.9,307.8,131219,000.0,W*6B
$GPGGA,114419.553,4315.907,N,00255.512,W,1,12,1.0,0.0,M,0.0,M,,*7E
$GPGSA,A,3,01,02,03,04,05,06,07,08,09,10,11,12,1.0,1.0,1.0*30
$GPRMC,114419.553,A,4315.907,N,00255.512,W,038.9,307.8,131219,000.0,W*6D
$GPGGA,114420.553,4315.915,N,00255.522,W,1,12,1.0,0.0,M,0.0,M,,*74
$GPGSA,A,3,01,02,03,04,05,06,07,08,09,10,11,12,1.0,1.0,1.0*30
$GPRMC,114420.553,A,4315.915,N,00255.522,W,038.9,307.8,131219,000.0,W*67
$GPGGA,114421.553,4315.923,N,00255.532,W,1,12,1.0,0.0,M,0.0,M,,*71
$GPGSA,A,3,01,02,03,04,05,06,07,08,09,10,11,12,1.0,1.0,1.0*30
$GPRMC,114421.553,A,4315.923,N,00255.532,W,038.9,307.8,131219,000.0,W*62
$GPGGA,114422.553,4315.931,N,00255.542,W,1,12,1.0,0.0,M,0.0,M,,*76
$GPGSA,A,3,01,02,03,04,05,06,07,08,09,10,11,12,1.0,1.0,1.0*30
$GPRMC,114422.553,A,4315.931,N,00255.542,W,038.9,307.8,131219,000.0,W*65
$GPGGA,114423.553,4315.939,N,00255.552,W,1,12,1.0,0.0,M,0.0,M,,*7E
$GPGSA,A,3,01,02,03,04,05,06,07,08,09,10,11,12,1.0,1.0,1.0*30
$GPRMC,114423.553,A,4315.939,N,00255.552,W,038.9,307.8,131219,000.0,W*6D
$GPGGA,114424.553,4315.947,N,00255.563,W,1,12,1.0,0.0,M,0.0,M,,*72
$GPGSA,A,3,01,02,03,04,05,06,07,08,09,10,11,12,1.0,1.0,1.0*30
$GPRMC,114424.553,A,4315.947,N,00255.563,W,038.9,307.8,131219,000.0,W*61
$GPGGA,114425.553,4315.954,N,00255.573,W,1,12,1.0,0.0,M,0.0,M,,*70
$GPGSA,A,3,01,02,03,04,05,06,07,08,09,10,11,12,1.0,1.0,1.0*30
$GPRMC,114425.553,A,4315.954,N,00255.573,W,038.9,307.8,131219,000.0,W*63
$GPGGA,114426.553,4315.962,N,00255.583,W,1,12,1.0,0.0,M,0.0,M,,*79
$GPGSA,A,3,01,02,03,04,05,06,07,08,09,10,11,12,1.0,1.0,1.0*30
$GPRMC,114426.553,A,4315.962,N,00255.583,W,038.9,307.8,131219,000.0,W*6A
$GPGGA,114427.553,4315.970,N,00255.593,W,1,12,1.0,0.0,M,0.0,M,,*7A
$GPGSA,A,3,01,02,03,04,05,06,07,08,09,10,11,12,1.0,1.0,1.0*30
$GPRMC,114427.553,A,4315.970,N,00255.593,W,038.9,307.8,131219,000.0,W*69
$GPGGA,114428.553,4315.978,N,00255.603,W,1,12,1.0,0.0,M,0.0,M,,*77
$GPGSA,A,3,01,02,03,04,05,06,07,08,09,10,11,12,1.0,1.0,1.0*30
$GPRMC,114428.553,A,4315.978,N,00255.603,W,038.9,307.8,131219,000.0,W*64
$GPGGA,114429.553,4315.986,N,00255.613,W,1,12,1.0,0.0,M,0.0,M,,*76
$GPGSA,A,3,01,02,03,04,05,06,07,08,09,10,11,12,1.0,1.0,1.0*30
$GPRMC,114429.553,A,4315.986,N,00255.613,W,038.9,307.8,131219,000.0,W*65
$GPGGA,114430.553,4315.994,N,00255.623,W,1,12,1.0,0.0,M,0.0,M,,*7E
$GPGSA,A,3,01,02,03,04,05,06,07,08,09,10,11,12,1.0,1.0,1.0*30
$GPRMC,114430.553,A,4315.994,N,00255.623,W,038.9,307.8,131219,000.0,W*6D
$GPGGA,114431.553,4316.002,N,00255.634,W,1,12,1.0,0.0,M,0.0,M,,*7C
$GPGSA,A,3,01,02,03,04,05,06,07,08,09,10,11,12,1.0,1.0,1.0*30
$GPRMC,114431.553,A,4316.002,N,00255.634,W,038.9,307.8,131219,000.0,W*6F
$GPGGA,114432.553,4316.010,N,00255.644,W,1,12,1.0,0.0,M,0.0,M,,*7B
$GPGSA,A,3,01,02,03,04,05,06,07,08,09,10,11,12,1.0,1.0,1.0*30
$GPRMC,114432.553,A,4316.010,N,00255.644,W,038.9,307.8,131219,000.0,W*68
$GPGGA,114433.553,4316.017,N,00255.654,W,1,12,1.0,0.0,M,0.0,M,,*7C
$GPGSA,A,3,01,02,03,04,05,06,07,08,09,10,11,12,1.0,1.0,1.0*30
$GPRMC,114433.553,A,4316.017,N,00255.654,W,038.9,307.8,131219,000.0,W*6F
$GPGGA,114434.553,4316.025,N,00255.664,W,1,12,1.0,0.0,M,0.0,M,,*79
$GPGSA,A,3,01,02,03,04,05,06,07,08,09,10,11,12,1.0,1.0,1.0*30
$GPRMC,114434.553,A,4316.025,N,00255.664,W,038.9,307.8,131219,000.0,W*6A
$GPGGA,114435.553,4316.033,N,00255.674,W,1,12,1.0,0.0,M,0.0,M,,*7E
$GPGSA,A,3,01,02,03,04,05,06,07,08,09,10,11,12,1.0,1.0,1.0*30
$GPRMC,114435.553,A,4316.033,N,00255.674,W,038.9,307.8,131219,000.0,W*6D
$GPGGA,114436.553,4316.041,N,00255.684,W,1,12,1.0,0.0,M,0.0,M,,*77
$GPGSA,A,3,01,02,03,04,05,06,07,08,09,10,11,12,1.0,1.0,1.0*30
$GPRMC,114436.553,A,4316.041,N,00255.684,W,038.9,307.8,131219,000.0,W*64
$GPGGA,114437.553,4316.049,N,00255.695,W,1,12,1.0,0.0,M,0.0,M,,*7E
$GPGSA,A,3,01,02,03,04,05,06,07,08,09,10,11,12,1.0,1.0,1.0*30
$GPRMC,114437.553,A,4316.049,N,00255.695,W,038.9,307.8,131219,000.0,W*6D
$GPGGA,114438.553,4316.057,N,00255.705,W,1,12,1.0,0.0,M,0.0,M,,*76
$GPGSA,A,3,01,02,03,04,05,06,07,08,09,10,11,12,1.0,1.0,1.0*30
$GPRMC,114438.553,A,4316.057,N,00255.705,W,038.9,307.8,131219,000.0,W*65
$GPGGA,114439.553,4316.065,N,00255.715,W,1,12,1.0,0.0,M,0.0,M,,*77
$GPGSA,A,3,01,02,03,04,05,06,07,08,09,10,11,12,1.0,1.0,1.0*30
$GPRMC,114439.553,A,4316.065,N,00255.715,W,038.9,307.8,131219,000.0,W*64
$GPGGA,114440.553,4316.072,N,00255.725,W,1,12,1.0,0.0,M,0.0,M,,*7C
$GPGSA,A,3,01,02,03,04,05,06,07,08,09,10,11,12,1.0,1.0,1.0*30
$GPRMC,114440.553,A,4316.072,N,00255.725,W,038.9,307.8,131219,000.0,W*6F
$GPGGA,114441.553,4316.080,N,00255.735,W,1,12,1.0,0.0,M,0.0,M,,*71
$GPGSA,A,3,01,02,03,04,05,06,07,08,09,10,11,12,1.0,1.0,1.0*30
$GPRMC,114441.553,A,4316.080,N,00255.735,W,038.9,307.8,131219,000.0,W*62
$GPGGA,114442.553,4316.088,N,00255.745,W,1,12,1.0,0.0,M,0.0,M,,*7D
$GPGSA,A,3,01,02,03,04,05,06,07,08,09,10,11,12,1.0,1.0,1.0*30
$GPRMC,114442.553,A,4316.088,N,00255.745,W,038.9,307.8,131219,000.0,W*6E
$GPGGA,114443.553,4316.096,N,00255.755,W,1,12,1.0,0.0,M,0.0,M,,*72
$GPGSA,A,3,01,02,03,04,05,06,07,08,09,10,11,12,1.0,1.0,1.0*30
$GPRMC,114443.553,A,4316.096,N,00255.755,W,038.9,307.8,131219,000.0,W*61
$GPGGA,114444.553,4316.104,N,00255.766,W,1,12,1.0,0.0,M,0.0,M,,*7F
$GPGSA,A,3,01,02,03,04,05,06,07,08,09,10,11,12,1.0,1.0,1.0*30
$GPRMC,114444.553,A,4316.104,N,00255.766,W,038.9,307.8,131219,000.0,W*6C
$GPGGA,114445.553,4316.112,N,00255.776,W,1,12,1.0,0.0,M,0.0,M,,*78
$GPGSA,A,3,01,02,03,04,05,06,07,08,09,10,11,12,1.0,1.0,1.0*30
$GPRMC,114445.553,A,4316.112,N,00255.776,W,038.9,307.8,131219,000.0,W*6B
$GPGGA,114446.553,4316.120,N,00255.786,W,1,12,1.0,0.0,M,0.0,M,,*75
$GPGSA,A,3,01,02,03,04,05,06,07,08,09,10,11,12,1.0,1.0,1.0*30
$GPRMC,114446.553,A,4316.120,N,00255.786,W,038.9,307.8,131219,000.0,W*66
$GPGGA,114447.553,4316.127,N,00255.796,W,1,12,1.0,0.0,M,0.0,M,,*72
$GPGSA,A,3,01,02,03,04,05,06,07,08,09,10,11,12,1.0,1.0,1.0*30
$GPRMC,114447.553,A,4316.127,N,00255.796,W,038.9,307.8,131219,000.0,W*61
$GPGGA,114448.553,4316.135,N,00255.806,W,1,12,1.0,0.0,M,0.0,M,,*78
$GPGSA,A,3,01,02,03,04,05,06,07,08,09,10,11,12,1.0,1.0,1.0*30
$GPRMC,114448.553,A,4316.135,N,00255.806,W,038.9,307.8,131219,000.0,W*6B
$GPGGA,114449.553,4316.143,N,00255.816,W,1,12,1.0,0.0,M,0.0,M,,*79
$GPGSA,A,3,01,02,03,04,05,06,07,08,09,10,11,12,1.0,1.0,1.0*30
$GPRMC,114449.553,A,4316.143,N,00255.816,W,038.9,307.8,131219,000.0,W*6A
$GPGGA,114450.553,4316.151,N,00255.827,W,1,12,1.0,0.0,M,0.0,M,,*70
$GPGSA,A,3,01,02,03,04,05,06,07,08,09,10,11,12,1.0,1.0,1.0*30
$GPRMC,114450.553,A,4316.151,N,00255.827,W,038.9,307.8,131219,000.0,W*63
$GPGGA,114451.553,4316.159,N,00255.837,W,1,12,1.0,0.0,M,0.0,M,,*78
$GPGSA,A,3,01,02,03,04,05,06,07,08,09,10,11,12,1.0,1.0,1.0*30
$GPRMC,114451.553,A,4316.159,N,00255.837,W,038.9,298.8,131219,000.0,W*6C
$GPGGA,114452.553,4316.165,N,00255.848,W,1,12,1.0,0.0,M,0.0,M,,*7C
$GPGSA,A,3,01,02,03,04,05,06,07,08,09,10,11,12,1.0,1.0,1.0*30
$GPRMC,114452.553,A,4316.165,N,00255.848,W,038.9,298.8,131219,000.0,W*68
$GPGGA,114453.553,4316.172,N,00255.860,W,1,12,1.0,0.0,M,0.0,M,,*71
$GPGSA,A,3,01,02,03,04,05,06,07,08,09,10,11,12,1.0,1.0,1.0*30
$GPRMC,114453.553,A,4316.172,N,00255.860,W,038.9,298.8,131219,000.0,W*65
$GPGGA,114454.553,4316.178,N,00255.872,W,1,12,1.0,0.0,M,0.0,M,,*7F
$GPGSA,A,3,01,02,03,04,05,06,07,08,09,10,11,12,1.0,1.0,1.0*30
$GPRMC,114454.553,A,4316.178,N,00255.872,W,038.9,286.1,131219,000.0,W*6D
$GPGGA,114455.553,4316.182,N,00255.886,W,1,12,1.0,0.0,M,0.0,M,,*70
$GPGSA,A,3,01,02,03,04,05,06,07,08,09,10,11,12,1.0,1.0,1.0*30
$GPRMC,114455.553,A,4316.182,N,00255.886,W,038.9,286.1,131219,000.0,W*62
$GPGGA,114456.553,4316.186,N,00255.900,W,1,12,1.0,0.0,M,0.0,M,,*78
$GPGSA,A,3,01,02,03,04,05,06,07,08,09,10,11,12,1.0,1.0,1.0*30
$GPRMC,114456.553,A,4316.186,N,00255.900,W,038.9,286.1,131219,000.0,W*6A
$GPGGA,114457.553,4316.190,N,00255.914,W,1,12,1.0,0.0,M,0.0,M,,*7B
$GPGSA,A,3,01,02,03,04,05,06,07,08,09,10,11,12,1.0,1.0,1.0*30
$GPRMC,114457.553,A,4316.190,N,00255.914,W,038.9,282.3,131219,000.0,W*6F
$GPGGA,114458.553,4316.193,N,00255.928,W,1,12,1.0,0.0,M,0.0,M,,*78
$GPGSA,A,3,01,02,03,04,05,06,07,08,09,10,11,12,1.0,1.0,1.0*30
$GPRMC,114458.553,A,4316.193,N,00255.928,W,038.9,282.3,131219,000.0,W*6C
$GPGGA,114459.553,4316.196,N,00255.942,W,1,12,1.0,0.0,M,0.0,M,,*70
$GPGSA,A,3,01,02,03,04,05,06,07,08,09,10,11,12,1.0,1.0,1.0*30
$GPRMC,114459.553,A,4316.196,N,00255.942,W,038.9,282.3,131219,000.0,W*64
$GPGGA,114500.553,4316.200,N,00255.956,W,1,12,1.0,0.0,M,0.0,M,,*74
$GPGSA,A,3,01,02,03,04,05,06,07,08,09,10,11,12,1.0,1.0,1.0*30
$GPRMC,114500.553,A,4316.200,N,00255.956,W,038.9,274.7,131219,000.0,W*6D
$GPGGA,114501.553,4316.201,N,00255.971,W,1,12,1.0,0.0,M,0.0,M,,*71
$GPGSA,A,3,01,02,03,04,05,06,07,08,09,10,11,12,1.0,1.0,1.0*30
$GPRMC,114501.553,A,4316.201,N,00255.971,W,038.9,274.7,131219,000.0,W*68
$GPGGA,114502.553,4316.202,N,00255.986,W,1,12,1.0,0.0,M,0.0,M,,*79
$GPGSA,A,3,01,02,03,04,05,06,07,08,09,10,11,12,1.0,1.0,1.0*30
$GPRMC,114502.553,A,4316.202,N,00255.986,W,038.9,274.7,131219,000.0,W*60
$GPGGA,114503.553,4316.203,N,00256.000,W,1,12,1.0,0.0,M,0.0,M,,*7D
$GPGSA,A,3,01,02,03,04,05,06,07,08,09,10,11,12,1.0,1.0,1.0*30
$GPRMC,114503.553,A,4316.203,N,00256.000,W,038.9,274.7,131219,000.0,W*64
$GPGGA,114504.553,4316.204,N,00256.015,W,1,12,1.0,0.0,M,0.0,M,,*79
$GPGSA,A,3,01,02,03,04,05,06,07,08,09,10,11,12,1.0,1.0,1.0*30
$GPRMC,114504.553,A,4316.204,N,00256.015,W,038.9,274.7,131219,000.0,W*60
$GPGGA,114505.553,4316.206,N,00256.030,W,1,12,1.0,0.0,M,0.0,M,,*7D
$GPGSA,A,3,01,02,03,04,05,06,07,08,09,10,11,12,1.0,1.0,1.0*30
$GPRMC,114505.553,A,4316.206,N,00256.030,W,038.9,272.1,131219,000.0,W*64
$GPGGA,114506.553,4316.206,N,00256.045,W,1,12,1.0,0.0,M,0.0,M,,*7C
$GPGSA,A,3,01,02,03,04,05,06,07,08,09,10,11,12,1.0,1.0,1.0*30
$GPRMC,114506.553,A,4316.206,N,00256.045,W,038.9,272.1,131219,000.0,W*65
$GPGGA,114507.553,4316.207,N,00256.059,W,1,12,1.0,0.0,M,0.0,M,,*71
$GPGSA,A,3,01,02,03,04,05,06,07,08,09,10,11,12,1.0,1.0,1.0*30
$GPRMC,114507.553,A,4316.207,N,00256.059,W,038.9,272.1,131219,000.0,W*68
$GPGGA,114508.553,4316.207,N,00256.074,W,1,12,1.0,0.0,M,0.0,M,,*71
$GPGSA,A,3,01,02,03,04,05,06,07,08,09,10,11,12,1.0,1.0,1.0*30
$GPRMC,114508.553,A,4316.207,N,00256.074,W,038.9,272.1,131219,000.0,W*68
$GPGGA,114509.553,4316.208,N,00256.089,W,1,12,1.0,0.0,M,0.0,M,,*7D
$GPGSA,A,3,01,02,03,04,05,06,07,08,09,10,11,12,1.0,1.0,1.0*30
$GPRMC,114509.553,A,4316.208,N,00256.089,W,038.9,272.1,131219,000.0,W*64
$GPGGA,114510.553,4316.208,N,00256.104,W,1,12,1.0,0.0,M,0.0,M,,*71
$GPGSA,A,3,01,02,03,04,05,06,07,08,09,10,11,12,1.0,1.0,1.0*30
$GPRMC,114510.553,A,4316.208,N,00256.104,W,038.9,272.1,131219,000.0,W*68
$GPGGA,114511.553,4316.209,N,00256.119,W,1,12,1.0,0.0,M,0.0,M,,*7D
$GPGSA,A,3,01,02,03,04,05,06,07,08,09,10,11,12,1.0,1.0,1.0*30
$GPRMC,114511.553,A,4316.209,N,00256.119,W,038.9,272.1,131219,000.0,W*64
$GPGGA,114512.553,4316.209,N,00256.133,W,1,12,1.0,0.0,M,0.0,M,,*76
$GPGSA,A,3,01,02,03,04,05,06,07,08,09,10,11,12,1.0,1.0,1.0*30
$GPRMC,114512.553,A,4316.209,N,00256.133,W,038.9,272.1,131219,000.0,W*6F
$GPGGA,114513.553,4316.210,N,00256.148,W,1,12,1.0,0.0,M,0.0,M,,*73
$GPGSA,A,3,01,02,03,04,05,06,07,08,09,10,11,12,1.0,1.0,1.0*30
$GPRMC,114513.553,A,4316.210,N,00256.148,W,038.9,272.1,131219,000.0,W*6A
$GPGGA,114514.553,4316.211,N,00256.163,W,1,12,1.0,0.0,M,0.0,M,,*7C
$GPGSA,A,3,01,02,03,04,05,06,07,08,09,10,11,12,1.0,1.0,1.0*30
$GPRMC,114514.553,A,4316.211,N,00256.163,W,038.9,272.1,131219,000.0,W*65
$GPGGA,114515.553,4316.211,N,00256.178,W,1,12,1.0,0.0,M,0.0,M,,*77
$GPGSA,A,3,01,02,03,04,05,06,07,08,09,10,11,12,1.0,1.0,1.0*30
$GPRMC,114515.553,A,4316.211,N,00256.178,W,038.9,272.1,131219,000.0,W*6E
$GPGGA,114516.553,4316.212,N,00256.193,W,1,12,1.0,0.0,M,0.0,M,,*72
$GPGSA,A,3,01,02,03,04,05,06,07,08,09,10,11,12,1.0,1.0,1.0*30
$GPRMC,114516.553,A,4316.212,N,00256.193,W,038.9,272.1,131219,000.0,W*6B
$GPGGA,114517.553,4316.212,N,00256.207,W,1,12,1.0,0.0,M,0.0,M,,*7D
$GPGSA,A,3,01,02,03,04,05,06,07,08,09,10,11,12,1.0,1.0,1.0*30
$GPRMC,114517.553,A,4316.212,N,00256.207,W,038.9,267.4,131219,000.0,W*65
$GPGGA,114518.553,4316.212,N,00256.222,W,1,12,1.0,0.0,M,0.0,M,,*75
$GPGSA,A,3,01,02,03,04,05,06,07,08,09,10,11,12,1.0,1.0,1.0*30
$GPRMC,114518.553,A,4316.212,N,00256.222,W,038.9,267.4,131219,000.0,W*6D
$GPGGA,114519.553,4316.211,N,00256.237,W,1,12,1.0,0.0,M,0.0,M,,*73
$GPGSA,A,3,01,02,03,04,05,06,07,08,09,10,11,12,1.0,1.0,1.0*30
$GPRMC,114519.553,A,4316.211,N,00256.237,W,038.9,267.4,131219,000.0,W*6B
$GPGGA,114520.553,4316.210,N,00256.252,W,1,12,1.0,0.0,M,0.0,M,,*7B
$GPGSA,A,3,01,02,03,04,05,06,07,08,09,10,11,12,1.0,1.0,1.0*30
$GPRMC,114520.553,A,4316.210,N,00256.252,W,038.9,267.4,131219,000.0,W*63
$GPGGA,114521.553,4316.209,N,00256.267,W,1,12,1.0,0.0,M,0.0,M,,*74
$GPGSA,A,3,01,02,03,04,05,06,07,08,09,10,11,12,1.0,1.0,1.0*30
$GPRMC,114521.553,A,4316.209,N,00256.267,W,038.9,267.4,131219,000.0,W*6C
$GPGGA,114522.553,4316.209,N,00256.281,W,1,12,1.0,0.0,M,0.0,M,,*7F
$GPGSA,A,3,01,02,03,04,05,06,07,08,09,10,11,12,1.0,1.0,1.0*30
$GPRMC,114522.553,A,4316.209,N,00256.281,W,038.9,267.4,131219,000.0,W*67
$GPGGA,114523.553,4316.208,N,00256.296,W,1,12,1.0,0.0,M,0.0,M,,*79
$GPGSA,A,3,01,02,03,04,05,06,07,08,09,10,11,12,1.0,1.0,1.0*30
$GPRMC,114523.553,A,4316.208,N,00256.296,W,038.9,267.4,131219,000.0,W*61
$GPGGA,114524.553,4316.207,N,00256.311,W,1,12,1.0,0.0,M,0.0,M,,*7F
$GPGSA,A,3,01,02,03,04,05,06,07,08,09,10,11,12,1.0,1.0,1.0*30
$GPRMC,114524.553,A,4316.207,N,00256.311,W,038.9,267.4,131219,000.0,W*67
$GPGGA,114525.553,4316.207,N,00256.326,W,1,12,1.0,0.0,M,0.0,M,,*7A
$GPGSA,A,3,01,02,03,04,05,06,07,08,09,10,11,12,1.0,1.0,1.0*30
$GPRMC,114525.553,A,4316.207,N,00256.326,W,038.9,267.4,131219,000.0,W*62
$GPGGA,114526.553,4316.206,N,00256.341,W,1,12,1.0,0.0,M,0.0,M,,*79
$GPGSA,A,3,01,02,03,04,05,06,07,08,09,10,11,12,1.0,1.0,1.0*30
$GPRMC,114526.553,A,4316.206,N,00256.341,W,038.9,267.4,131219,000.0,W*61
$GPGGA,114527.553,4316.205,N,00256.355,W,1,12,1.0,0.0,M,0.0,M,,*7E
$GPGSA,A,3,01,02,03,04,05,06,07,08,09,10,11,12,1.0,1.0,1.0*30
$GPRMC,114527.553,A,4316.205,N,00256.355,W,038.9,273.4,131219,000.0,W*63
$GPGGA,114528.553,4316.206,N,00256.370,W,1,12,1.0,0.0,M,0.0,M,,*75
$GPGSA,A,3,01,02,03,04,05,06,07,08,09,10,11,12,1.0,1.0,1.0*30
$GPRMC,114528.553,A,4316.206,N,00256.370,W,038.9,273.4,131219,000.0,W*68
$GPGGA,114529.553,4316.207,N,00256.385,W,1,12,1.0,0.0,M,0.0,M,,*7F
$GPGSA,A,3,01,02,03,04,05,06,07,08,09,10,11,12,1.0,1.0,1.0*30
$GPRMC,114529.553,A,4316.207,N,00256.385,W,037.1,250.0,131219,000.0,W*60
$GPGGA,114530.553,4316.203,N,00256.398,W,1,12,1.0,0.0,M,0.0,M,,*7F
$GPGSA,A,3,01,02,03,04,05,06,07,08,09,10,11,12,1.0,1.0,1.0*30
$GPRMC,114530.553,A,4316.203,N,00256.398,W,013.9,341.1,131219,000.0,W*6E
$GPGGA,114531.553,4316.206,N,00256.399,W,1,12,1.0,0.0,M,0.0,M,,*7A
$GPGSA,A,3,01,02,03,04,05,06,07,08,09,10,11,12,1.0,1.0,1.0*30
$GPRMC,114531.553,A,4316.206,N,00256.399,W,013.9,341.1,131219,000.0,W*6B
