$GPGGA,114054.461,4316.907,N,00257.773,W,1,12,1.0,0.0,M,0.0,M,,*77
$GPGSA,A,3,01,02,03,04,05,06,07,08,09,10,11,12,1.0,1.0,1.0*30
$GPRMC,114054.461,A,4316.907,N,00257.773,W,029.2,181.9,131219,000.0,W*62
$GPGGA,114055.461,4316.899,N,00257.773,W,1,12,1.0,0.0,M,0.0,M,,*70
$GPGSA,A,3,01,02,03,04,05,06,07,08,09,10,11,12,1.0,1.0,1.0*30
$GPRMC,114055.461,A,4316.899,N,00257.773,W,029.2,151.1,131219,000.0,W*60
$GPGGA,114056.461,4316.891,N,00257.769,W,1,12,1.0,0.0,M,0.0,M,,*70
$GPGSA,A,3,01,02,03,04,05,06,07,08,09,10,11,12,1.0,1.0,1.0*30
$GPRMC,114056.461,A,4316.891,N,00257.769,W,029.2,151.1,131219,000.0,W*60
$GPGGA,114057.461,4316.884,N,00257.765,W,1,12,1.0,0.0,M,0.0,M,,*79
$GPGSA,A,3,01,02,03,04,05,06,07,08,09,10,11,12,1.0,1.0,1.0*30
$GPRMC,114057.461,A,4316.884,N,00257.765,W,029.2,151.1,131219,000.0,W*69
$GPGGA,114058.461,4316.876,N,00257.761,W,1,12,1.0,0.0,M,0.0,M,,*7F
$GPGSA,A,3,01,02,03,04,05,06,07,08,09,10,11,12,1.0,1.0,1.0*30
$GPRMC,114058.461,A,4316.876,N,00257.761,W,029.2,151.1,131219,000.0,W*6F
$GPGGA,114059.461,4316.869,N,00257.756,W,1,12,1.0,0.0,M,0.0,M,,*74
$GPGSA,A,3,01,02,03,04,05,06,07,08,09,10,11,12,1.0,1.0,1.0*30
$GPRMC,114059.461,A,4316.869,N,00257.756,W,029.2,151.1,131219,000.0,W*64
$GPGGA,114100.461,4316.861,N,00257.752,W,1,12,1.0,0.0,M,0.0,M,,*75
$GPGSA,A,3,01,02,03,04,05,06,07,08,09,10,11,12,1.0,1.0,1.0*30
$GPRMC,114100.461,A,4316.861,N,00257.752,W,029.2,151.1,131219,000.0,W*65
$GPGGA,114101.461,4316.854,N,00257.748,W,1,12,1.0,0.0,M,0.0,M,,*79
$GPGSA,A,3,01,02,03,04,05,06,07,08,09,10,11,12,1.0,1.0,1.0*30
$GPRMC,114101.461,A,4316.854,N,00257.748,W,029.2,151.1,131219,000.0,W*69
$GPGGA,114102.461,4316.846,N,00257.744,W,1,12,1.0,0.0,M,0.0,M,,*75
$GPGSA,A,3,01,02,03,04,05,06,07,08,09,10,11,12,1.0,1.0,1.0*30
$GPRMC,114102.461,A,4316.846,N,00257.744,W,029.2,151.1,131219,000.0,W*65
$GPGGA,114103.461,4316.839,N,00257.740,W,1,12,1.0,0.0,M,0.0,M,,*78
$GPGSA,A,3,01,02,03,04,05,06,07,08,09,10,11,12,1.0,1.0,1.0*30
$GPRMC,114103.461,A,4316.839,N,00257.740,W,029.2,151.1,131219,000.0,W*68
$GPGGA,114104.461,4316.831,N,00257.736,W,1,12,1.0,0.0,M,0.0,M,,*76
$GPGSA,A,3,01,02,03,04,05,06,07,08,09,10,11,12,1.0,1.0,1.0*30
$GPRMC,114104.461,A,4316.831,N,00257.736,W,029.2,151.1,131219,000.0,W*66
$GPGGA,114105.461,4316.824,N,00257.732,W,1,12,1.0,0.0,M,0.0,M,,*77
$GPGSA,A,3,01,02,03,04,05,06,07,08,09,10,11,12,1.0,1.0,1.0*30
$GPRMC,114105.461,A,4316.824,N,00257.732,W,029.2,151.1,131219,000.0,W*67
$GPGGA,114106.461,4316.816,N,00257.727,W,1,12,1.0,0.0,M,0.0,M,,*71
$GPGSA,A,3,01,02,03,04,05,06,07,08,09,10,11,12,1.0,1.0,1.0*30
$GPRMC,114106.461,A,4316.816,N,00257.727,W,029.2,151.1,131219,000.0,W*61
$GPGGA,114107.461,4316.809,N,00257.723,W,1,12,1.0,0.0,M,0.0,M,,*7A
$GPGSA,A,3,01,02,03,04,05,06,07,08,09,10,11,12,1.0,1.0,1.0*30
$GPRMC,114107.461,A,4316.809,N,00257.723,W,029.2,151.1,131219,000.0,W*6A
$GPGGA,114108.461,4316.801,N,00257.719,W,1,12,1.0,0.0,M,0.0,M,,*74
$GPGSA,A,3,01,02,03,04,05,06,07,08,09,10,11,12,1.0,1.0,1.0*30
$GPRMC,114108.461,A,4316.801,N,00257.719,W,029.2,151.1,131219,000.0,W*64
$GPGGA,114109.461,4316.794,N,00257.715,W,1,12,1.0,0.0,M,0.0,M,,*7A
$GPGSA,A,3,01,02,03,04,05,06,07,08,09,10,11,12,1.0,1.0,1.0*30
$GPRMC,114109.461,A,4316.794,N,00257.715,W,029.2,073.6,131219,000.0,W*6C
$GPGGA,114110.461,4316.797,N,00257.705,W,1,12,1.0,0.0,M,0.0,M,,*70
$GPGSA,A,3,01,02,03,04,05,06,07,08,09,10,11,12,1.0,1.0,1.0*30
$GPRMC,114110.461,A,4316.797,N,00257.705,W,029.2,073.6,131219,000.0,W*66
$GPGGA,114111.461,4316.800,N,00257.694,W,1,12,1.0,0.0,M,0.0,M,,*79
$GPGSA,A,3,01,02,03,04,05,06,07,08,09,10,11,12,1.0,1.0,1.0*30
$GPRMC,114111.461,A,4316.800,N,00257.694,W,029.2,073.6,131219,000.0,W*6F
$GPGGA,114112.461,4316.803,N,00257.684,W,1,12,1.0,0.0,M,0.0,M,,*78
$GPGSA,A,3,01,02,03,04,05,06,07,08,09,10,11,12,1.0,1.0,1.0*30
$GPRMC,114112.461,A,4316.803,N,00257.684,W,029.2,073.6,131219,000.0,W*6E
$GPGGA,114113.461,4316.806,N,00257.674,W,1,12,1.0,0.0,M,0.0,M,,*73
$GPGSA,A,3,01,02,03,04,05,06,07,08,09,10,11,12,1.0,1.0,1.0*30
$GPRMC,114113.461,A,4316.806,N,00257.674,W,029.2,073.6,131219,000.0,W*65
$GPGGA,114114.461,4316.809,N,00257.663,W,1,12,1.0,0.0,M,0.0,M,,*7D
$GPGSA,A,3,01,02,03,04,05,06,07,08,09,10,11,12,1.0,1.0,1.0*30
$GPRMC,114114.461,A,4316.809,N,00257.663,W,029.2,073.6,131219,000.0,W*6B
$GPGGA,114115.461,4316.812,N,00257.653,W,1,12,1.0,0.0,M,0.0,M,,*75
$GPGSA,A,3,01,02,03,04,05,06,07,08,09,10,11,12,1.0,1.0,1.0*30
$GPRMC,114115.461,A,4316.812,N,00257.653,W,029.2,073.6,131219,000.0,W*63
$GPGGA,114116.461,4316.815,N,00257.643,W,1,12,1.0,0.0,M,0.0,M,,*70
$GPGSA,A,3,01,02,03,04,05,06,07,08,09,10,11,12,1.0,1.0,1.0*30
$GPRMC,114116.461,A,4316.815,N,00257.643,W,029.2,254.1,131219,000.0,W*66
$GPGGA,114117.461,4316.812,N,00257.653,W,1,12,1.0,0.0,M,0.0,M,,*77
$GPGSA,A,3,01,02,03,04,05,06,07,08,09,10,11,12,1.0,1.0,1.0*30
$GPRMC,114117.461,A,4316.812,N,00257.653,W,029.2,254.1,131219,000.0,W*61
$GPGGA,114118.461,4316.809,N,00257.663,W,1,12,1.0,0.0,M,0.0,M,,*71
$GPGSA,A,3,01,02,03,04,05,06,07,08,09,10,11,12,1.0,1.0,1.0*30
$GPRMC,114118.461,A,4316.809,N,00257.663,W,029.2,256.1,131219,000.0,W*65
$GPGGA,114119.461,4316.806,N,00257.674,W,1,12,1.0,0.0,M,0.0,M,,*79
$GPGSA,A,3,01,02,03,04,05,06,07,08,09,10,11,12,1.0,1.0,1.0*30
$GPRMC,114119.461,A,4316.806,N,00257.674,W,029.2,150.3,131219,000.0,W*6A
$GPGGA,114120.461,4316.799,N,00257.670,W,1,12,1.0,0.0,M,0.0,M,,*7E
$GPGSA,A,3,01,02,03,04,05,06,07,08,09,10,11,12,1.0,1.0,1.0*30
$GPRMC,114120.461,A,4316.799,N,00257.670,W,029.2,150.3,131219,000.0,W*6D
$GPGGA,114121.461,4316.791,N,00257.665,W,1,12,1.0,0.0,M,0.0,M,,*73
$GPGSA,A,3,01,02,03,04,05,06,07,08,09,10,11,12,1.0,1.0,1.0*30
$GPRMC,114121.461,A,4316.791,N,00257.665,W,029.2,150.3,131219,000.0,W*60
$GPGGA,114122.461,4316.784,N,00257.661,W,1,12,1.0,0.0,M,0.0,M,,*70
$GPGSA,A,3,01,02,03,04,05,06,07,08,09,10,11,12,1.0,1.0,1.0*30
$GPRMC,114122.461,A,4316.784,N,00257.661,W,029.2,150.3,131219,000.0,W*63
$GPGGA,114123.461,4316.776,N,00257.657,W,1,12,1.0,0.0,M,0.0,M,,*79
$GPGSA,A,3,01,02,03,04,05,06,07,08,09,10,11,12,1.0,1.0,1.0*30
$GPRMC,114123.461,A,4316.776,N,00257.657,W,029.2,150.3,131219,000.0,W*6A
$GPGGA,114124.461,4316.769,N,00257.653,W,1,12,1.0,0.0,M,0.0,M,,*74
$GPGSA,A,3,01,02,03,04,05,06,07,08,09,10,11,12,1.0,1.0,1.0*30
$GPRMC,114124.461,A,4316.769,N,00257.653,W,029.2,150.3,131219,000.0,W*67
$GPGGA,114125.461,4316.761,N,00257.648,W,1,12,1.0,0.0,M,0.0,M,,*77
$GPGSA,A,3,01,02,03,04,05,06,07,08,09,10,11,12,1.0,1.0,1.0*30
$GPRMC,114125.461,A,4316.761,N,00257.648,W,029.2,150.3,131219,000.0,W*64
$GPGGA,114126.461,4316.754,N,00257.644,W,1,12,1.0,0.0,M,0.0,M,,*7E
$GPGSA,A,3,01,02,03,04,05,06,07,08,09,10,11,12,1.0,1.0,1.0*30
$GPRMC,114126.461,A,4316.754,N,00257.644,W,029.2,150.3,131219,000.0,W*6D
$GPGGA,114127.461,4316.746,N,00257.640,W,1,12,1.0,0.0,M,0.0,M,,*78
$GPGSA,A,3,01,02,03,04,05,06,07,08,09,10,11,12,1.0,1.0,1.0*30
$GPRMC,114127.461,A,4316.746,N,00257.640,W,029.2,150.3,131219,000.0,W*6B
$GPGGA,114128.461,4316.739,N,00257.635,W,1,12,1.0,0.0,M,0.0,M,,*7D
$GPGSA,A,3,01,02,03,04,05,06,07,08,09,10,11,12,1.0,1.0,1.0*30
$GPRMC,114128.461,A,4316.739,N,00257.635,W,029.2,150.3,131219,000.0,W*6E
$GPGGA,114129.461,4316.731,N,00257.631,W,1,12,1.0,0.0,M,0.0,M,,*70
$GPGSA,A,3,01,02,03,04,05,06,07,08,09,10,11,12,1.0,1.0,1.0*30
$GPRMC,114129.461,A,4316.731,N,00257.631,W,029.2,150.3,131219,000.0,W*63
$GPGGA,114130.461,4316.724,N,00257.627,W,1,12,1.0,0.0,M,0.0,M,,*7B
$GPGSA,A,3,01,02,03,04,05,06,07,08,09,10,11,12,1.0,1.0,1.0*30
$GPRMC,114130.461,A,4316.724,N,00257.627,W,029.2,150.3,131219,000.0,W*68
$GPGGA,114131.461,4316.717,N,00257.623,W,1,12,1.0,0.0,M,0.0,M,,*7E
$GPGSA,A,3,01,02,03,04,05,06,07,08,09,10,11,12,1.0,1.0,1.0*30
$GPRMC,114131.461,A,4316.717,N,00257.623,W,029.2,252.4,131219,000.0,W*6B
$GPGGA,114132.461,4316.713,N,00257.633,W,1,12,1.0,0.0,M,0.0,M,,*78
$GPGSA,A,3,01,02,03,04,05,06,07,08,09,10,11,12,1.0,1.0,1.0*30
$GPRMC,114132.461,A,4316.713,N,00257.633,W,029.2,252.4,131219,000.0,W*6D
$GPGGA,114133.461,4316.710,N,00257.643,W,1,12,1.0,0.0,M,0.0,M,,*7D
$GPGSA,A,3,01,02,03,04,05,06,07,08,09,10,11,12,1.0,1.0,1.0*30
$GPRMC,114133.461,A,4316.710,N,00257.643,W,029.2,252.4,131219,000.0,W*68
$GPGGA,114134.461,4316.707,N,00257.653,W,1,12,1.0,0.0,M,0.0,M,,*7D
$GPGSA,A,3,01,02,03,04,05,06,07,08,09,10,11,12,1.0,1.0,1.0*30
$GPRMC,114134.461,A,4316.707,N,00257.653,W,029.2,252.4,131219,000.0,W*68
$GPGGA,114135.461,4316.704,N,00257.663,W,1,12,1.0,0.0,M,0.0,M,,*7C
$GPGSA,A,3,01,02,03,04,05,06,07,08,09,10,11,12,1.0,1.0,1.0*30
$GPRMC,114135.461,A,4316.704,N,00257.663,W,029.2,150.6,131219,000.0,W*6A
$GPGGA,114136.461,4316.696,N,00257.659,W,1,12,1.0,0.0,M,0.0,M,,*7C
$GPGSA,A,3,01,02,03,04,05,06,07,08,09,10,11,12,1.0,1.0,1.0*30
$GPRMC,114136.461,A,4316.696,N,00257.659,W,029.2,150.6,131219,000.0,W*6A
$GPGGA,114137.461,4316.689,N,00257.655,W,1,12,1.0,0.0,M,0.0,M,,*7F
$GPGSA,A,3,01,02,03,04,05,06,07,08,09,10,11,12,1.0,1.0,1.0*30
$GPRMC,114137.461,A,4316.689,N,00257.655,W,029.2,150.6,131219,000.0,W*69
$GPGGA,114138.461,4316.681,N,00257.651,W,1,12,1.0,0.0,M,0.0,M,,*7C
$GPGSA,A,3,01,02,03,04,05,06,07,08,09,10,11,12,1.0,1.0,1.0*30
$GPRMC,114138.461,A,4316.681,N,00257.651,W,029.2,150.6,131219,000.0,W*6A
$GPGGA,114139.461,4316.674,N,00257.647,W,1,12,1.0,0.0,M,0.0,M,,*70
$GPGSA,A,3,01,02,03,04,05,06,07,08,09,10,11,12,1.0,1.0,1.0*30
$GPRMC,114139.461,A,4316.674,N,00257.647,W,029.2,150.6,131219,000.0,W*66
$GPGGA,114140.461,4316.666,N,00257.642,W,1,12,1.0,0.0,M,0.0,M,,*78
$GPGSA,A,3,01,02,03,04,05,06,07,08,09,10,11,12,1.0,1.0,1.0*30
$GPRMC,114140.461,A,4316.666,N,00257.642,W,029.2,150.6,131219,000.0,W*6E
$GPGGA,114141.461,4316.659,N,00257.638,W,1,12,1.0,0.0,M,0.0,M,,*78
$GPGSA,A,3,01,02,03,04,05,06,07,08,09,10,11,12,1.0,1.0,1.0*30
$GPRMC,114141.461,A,4316.659,N,00257.638,W,029.2,150.6,131219,000.0,W*6E
$GPGGA,114142.461,4316.651,N,00257.634,W,1,12,1.0,0.0,M,0.0,M,,*7F
$GPGSA,A,3,01,02,03,04,05,06,07,08,09,10,11,12,1.0,1.0,1.0*30
$GPRMC,114142.461,A,4316.651,N,00257.634,W,029.2,150.6,131219,000.0,W*69
$GPGGA,114143.461,4316.644,N,00257.630,W,1,12,1.0,0.0,M,0.0,M,,*7E
$GPGSA,A,3,01,02,03,04,05,06,07,08,09,10,11,12,1.0,1.0,1.0*30
$GPRMC,114143.461,A,4316.644,N,00257.630,W,029.2,150.6,131219,000.0,W*68
$GPGGA,114144.461,4316.636,N,00257.625,W,1,12,1.0,0.0,M,0.0,M,,*78
$GPGSA,A,3,01,02,03,04,05,06,07,08,09,10,11,12,1.0,1.0,1.0*30
$GPRMC,114144.461,A,4316.636,N,00257.625,W,029.2,150.6,131219,000.0,W*6E
$GPGGA,114145.461,4316.629,N,00257.621,W,1,12,1.0,0.0,M,0.0,M,,*73
$GPGSA,A,3,01,02,03,04,05,06,07,08,09,10,11,12,1.0,1.0,1.0*30
$GPRMC,114145.461,A,4316.629,N,00257.621,W,029.2,150.6,131219,000.0,W*65
$GPGGA,114146.461,4316.621,N,00257.617,W,1,12,1.0,0.0,M,0.0,M,,*7D
$GPGSA,A,3,01,02,03,04,05,06,07,08,09,10,11,12,1.0,1.0,1.0*30
$GPRMC,114146.461,A,4316.621,N,00257.617,W,029.2,150.6,131219,000.0,W*6B
$GPGGA,114147.461,4316.614,N,00257.613,W,1,12,1.0,0.0,M,0.0,M,,*7E
$GPGSA,A,3,01,02,03,04,05,06,07,08,09,10,11,12,1.0,1.0,1.0*30
$GPRMC,114147.461,A,4316.614,N,00257.613,W,029.2,150.6,131219,000.0,W*68
$GPGGA,114148.461,4316.606,N,00257.608,W,1,12,1.0,0.0,M,0.0,M,,*78
$GPGSA,A,3,01,02,03,04,05,06,07,08,09,10,11,12,1.0,1.0,1.0*30
$GPRMC,114148.461,A,4316.606,N,00257.608,W,029.2,150.6,131219,000.0,W*6E
$GPGGA,114149.461,4316.599,N,00257.604,W,1,12,1.0,0.0,M,0.0,M,,*70
$GPGSA,A,3,01,02,03,04,05,06,07,08,09,10,11,12,1.0,1.0,1.0*30
$GPRMC,114149.461,A,4316.599,N,00257.604,W,029.2,150.6,131219,000.0,W*66
$GPGGA,114150.461,4316.591,N,00257.600,W,1,12,1.0,0.0,M,0.0,M,,*74
$GPGSA,A,3,01,02,03,04,05,06,07,08,09,10,11,12,1.0,1.0,1.0*30
$GPRMC,114150.461,A,4316.591,N,00257.600,W,029.2,150.6,131219,000.0,W*62
$GPGGA,114151.461,4316.584,N,00257.596,W,1,12,1.0,0.0,M,0.0,M,,*7D
$GPGSA,A,3,01,02,03,04,05,06,07,08,09,10,11,12,1.0,1.0,1.0*30
$GPRMC,114151.461,A,4316.584,N,00257.596,W,029.2,150.6,131219,000.0,W*6B
$GPGGA,114152.461,4316.576,N,00257.592,W,1,12,1.0,0.0,M,0.0,M,,*77
$GPGSA,A,3,01,02,03,04,05,06,07,08,09,10,11,12,1.0,1.0,1.0*30
$GPRMC,114152.461,A,4316.576,N,00257.592,W,029.2,150.6,131219,000.0,W*61
$GPGGA,114153.461,4316.569,N,00257.587,W,1,12,1.0,0.0,M,0.0,M,,*7C
$GPGSA,A,3,01,02,03,04,05,06,07,08,09,10,11,12,1.0,1.0,1.0*30
$GPRMC,114153.461,A,4316.569,N,00257.587,W,029.2,150.6,131219,000.0,W*6A
$GPGGA,114154.461,4316.561,N,00257.583,W,1,12,1.0,0.0,M,0.0,M,,*77
$GPGSA,A,3,01,02,03,04,05,06,07,08,09,10,11,12,1.0,1.0,1.0*30
$GPRMC,114154.461,A,4316.561,N,00257.583,W,029.2,150.6,131219,000.0,W*61
$GPGGA,114155.461,4316.554,N,00257.579,W,1,12,1.0,0.0,M,0.0,M,,*75
$GPGSA,A,3,01,02,03,04,05,06,07,08,09,10,11,12,1.0,1.0,1.0*30
$GPRMC,114155.461,A,4316.554,N,00257.579,W,029.2,150.6,131219,000.0,W*63
$GPGGA,114156.461,4316.547,N,00257.575,W,1,12,1.0,0.0,M,0.0,M,,*78
$GPGSA,A,3,01,02,03,04,05,06,07,08,09,10,11,12,1.0,1.0,1.0*30
$GPRMC,114156.461,A,4316.547,N,00257.575,W,029.2,150.6,131219,000.0,W*6E
$GPGGA,114157.461,4316.539,N,00257.570,W,1,12,1.0,0.0,M,0.0,M,,*75
$GPGSA,A,3,01,02,03,04,05,06,07,08,09,10,11,12,1.0,1.0,1.0*30
$GPRMC,114157.461,A,4316.539,N,00257.570,W,029.2,150.6,131219,000.0,W*63
$GPGGA,114158.461,4316.532,N,00257.566,W,1,12,1.0,0.0,M,0.0,M,,*76
$GPGSA,A,3,01,02,03,04,05,06,07,08,09,10,11,12,1.0,1.0,1.0*30
$GPRMC,114158.461,A,4316.532,N,00257.566,W,029.2,163.8,131219,000.0,W*6E
$GPGGA,114159.461,4316.524,N,00257.564,W,1,12,1.0,0.0,M,0.0,M,,*72
$GPGSA,A,3,01,02,03,04,05,06,07,08,09,10,11,12,1.0,1.0,1.0*30
$GPRMC,114159.461,A,4316.524,N,00257.564,W,029.2,138.9,131219,000.0,W*65
$GPGGA,114200.461,4316.517,N,00257.558,W,1,12,1.0,0.0,M,0.0,M,,*72
$GPGSA,A,3,01,02,03,04,05,06,07,08,09,10,11,12,1.0,1.0,1.0*30
$GPRMC,114200.461,A,4316.517,N,00257.558,W,029.2,138.9,131219,000.0,W*65
$GPGGA,114201.461,4316.510,N,00257.552,W,1,12,1.0,0.0,M,0.0,M,,*7E
$GPGSA,A,3,01,02,03,04,05,06,07,08,09,10,11,12,1.0,1.0,1.0*30
$GPRMC,114201.461,A,4316.510,N,00257.552,W,029.2,138.9,131219,000.0,W*69
$GPGGA,114202.461,4316.503,N,00257.546,W,1,12,1.0,0.0,M,0.0,M,,*7A
$GPGSA,A,3,01,02,03,04,05,06,07,08,09,10,11,12,1.0,1.0,1.0*30
$GPRMC,114202.461,A,4316.503,N,00257.546,W,029.2,138.9,131219,000.0,W*6D
$GPGGA,114203.461,4316.496,N,00257.540,W,1,12,1.0,0.0,M,0.0,M,,*70
$GPGSA,A,3,01,02,03,04,05,06,07,08,09,10,11,12,1.0,1.0,1.0*30
$GPRMC,114203.461,A,4316.496,N,00257.540,W,029.2,138.9,131219,000.0,W*67
$GPGGA,114204.461,4316.489,N,00257.534,W,1,12,1.0,0.0,M,0.0,M,,*7A
$GPGSA,A,3,01,02,03,04,05,06,07,08,09,10,11,12,1.0,1.0,1.0*30
$GPRMC,114204.461,A,4316.489,N,00257.534,W,029.2,127.2,131219,000.0,W*68
$GPGGA,114205.461,4316.484,N,00257.526,W,1,12,1.0,0.0,M,0.0,M,,*75
$GPGSA,A,3,01,02,03,04,05,06,07,08,09,10,11,12,1.0,1.0,1.0*30
$GPRMC,114205.461,A,4316.484,N,00257.526,W,029.2,127.2,131219,000.0,W*67
$GPGGA,114206.461,4316.478,N,00257.519,W,1,12,1.0,0.0,M,0.0,M,,*79
$GPGSA,A,3,01,02,03,04,05,06,07,08,09,10,11,12,1.0,1.0,1.0*30
$GPRMC,114206.461,A,4316.478,N,00257.519,W,029.2,127.2,131219,000.0,W*6B
$GPGGA,114207.461,4316.472,N,00257.511,W,1,12,1.0,0.0,M,0.0,M,,*7A
$GPGSA,A,3,01,02,03,04,05,06,07,08,09,10,11,12,1.0,1.0,1.0*30
$GPRMC,114207.461,A,4316.472,N,00257.511,W,029.2,127.2,131219,000.0,W*68
$GPGGA,114208.461,4316.466,N,00257.503,W,1,12,1.0,0.0,M,0.0,M,,*73
$GPGSA,A,3,01,02,03,04,05,06,07,08,09,10,11,12,1.0,1.0,1.0*30
$GPRMC,114208.461,A,4316.466,N,00257.503,W,029.2,127.2,131219,000.0,W*61
$GPGGA,114209.461,4316.460,N,00257.495,W,1,12,1.0,0.0,M,0.0,M,,*7A
$GPGSA,A,3,01,02,03,04,05,06,07,08,09,10,11,12,1.0,1.0,1.0*30
$GPRMC,114209.461,A,4316.460,N,00257.495,W,029.2,127.2,131219,000.0,W*68
$GPGGA,114210.461,4316.454,N,00257.488,W,1,12,1.0,0.0,M,0.0,M,,*79
$GPGSA,A,3,01,02,03,04,05,06,07,08,09,10,11,12,1.0,1.0,1.0*30
$GPRMC,114210.461,A,4316.454,N,00257.488,W,029.2,127.2,131219,000.0,W*6B
$GPGGA,114211.461,4316.449,N,00257.480,W,1,12,1.0,0.0,M,0.0,M,,*7C
$GPGSA,A,3,01,02,03,04,05,06,07,08,09,10,11,12,1.0,1.0,1.0*30
$GPRMC,114211.461,A,4316.449,N,00257.480,W,029.2,127.2,131219,000.0,W*6E
$GPGGA,114212.461,4316.443,N,00257.472,W,1,12,1.0,0.0,M,0.0,M,,*78
$GPGSA,A,3,01,02,03,04,05,06,07,08,09,10,11,12,1.0,1.0,1.0*30
$GPRMC,114212.461,A,4316.443,N,00257.472,W,029.2,127.2,131219,000.0,W*6A
$GPGGA,114213.461,4316.437,N,00257.465,W,1,12,1.0,0.0,M,0.0,M,,*7C
$GPGSA,A,3,01,02,03,04,05,06,07,08,09,10,11,12,1.0,1.0,1.0*30
$GPRMC,114213.461,A,4316.437,N,00257.465,W,029.2,127.2,131219,000.0,W*6E
$GPGGA,114214.461,4316.431,N,00257.457,W,1,12,1.0,0.0,M,0.0,M,,*7C
$GPGSA,A,3,01,02,03,04,05,06,07,08,09,10,11,12,1.0,1.0,1.0*30
$GPRMC,114214.461,A,4316.431,N,00257.457,W,029.2,127.2,131219,000.0,W*6E
$GPGGA,114215.461,4316.425,N,00257.449,W,1,12,1.0,0.0,M,0.0,M,,*77
$GPGSA,A,3,01,02,03,04,05,06,07,08,09,10,11,12,1.0,1.0,1.0*30
$GPRMC,114215.461,A,4316.425,N,00257.449,W,029.2,127.2,131219,000.0,W*65
$GPGGA,114216.461,4316.419,N,00257.442,W,1,12,1.0,0.0,M,0.0,M,,*70
$GPGSA,A,3,01,02,03,04,05,06,07,08,09,10,11,12,1.0,1.0,1.0*30
$GPRMC,114216.461,A,4316.419,N,00257.442,W,029.2,127.2,131219,000.0,W*62
$GPGGA,114217.461,4316.414,N,00257.434,W,1,12,1.0,0.0,M,0.0,M,,*7D
$GPGSA,A,3,01,02,03,04,05,06,07,08,09,10,11,12,1.0,1.0,1.0*30
$GPRMC,114217.461,A,4316.414,N,00257.434,W,029.2,111.5,131219,000.0,W*6D
$GPGGA,114218.461,4316.410,N,00257.424,W,1,12,1.0,0.0,M,0.0,M,,*77
$GPGSA,A,3,01,02,03,04,05,06,07,08,09,10,11,12,1.0,1.0,1.0*30
$GPRMC,114218.461,A,4316.410,N,00257.424,W,029.2,111.5,131219,000.0,W*67
$GPGGA,114219.461,4316.406,N,00257.414,W,1,12,1.0,0.0,M,0.0,M,,*72
$GPGSA,A,3,01,02,03,04,05,06,07,08,09,10,11,12,1.0,1.0,1.0*30
$GPRMC,114219.461,A,4316.406,N,00257.414,W,029.2,111.5,131219,000.0,W*62
$GPGGA,114220.461,4316.402,N,00257.405,W,1,12,1.0,0.0,M,0.0,M,,*7C
$GPGSA,A,3,01,02,03,04,05,06,07,08,09,10,11,12,1.0,1.0,1.0*30
$GPRMC,114220.461,A,4316.402,N,00257.405,W,029.2,111.5,131219,000.0,W*6C
$GPGGA,114221.461,4316.398,N,00257.395,W,1,12,1.0,0.0,M,0.0,M,,*77
$GPGSA,A,3,01,02,03,04,05,06,07,08,09,10,11,12,1.0,1.0,1.0*30
$GPRMC,114221.461,A,4316.398,N,00257.395,W,029.2,111.5,131219,000.0,W*67
$GPGGA,114222.461,4316.394,N,00257.385,W,1,12,1.0,0.0,M,0.0,M,,*79
$GPGSA,A,3,01,02,03,04,05,06,07,08,09,10,11,12,1.0,1.0,1.0*30
$GPRMC,114222.461,A,4316.394,N,00257.385,W,029.2,111.5,131219,000.0,W*69
$GPGGA,114223.461,4316.391,N,00257.375,W,1,12,1.0,0.0,M,0.0,M,,*72
$GPGSA,A,3,01,02,03,04,05,06,07,08,09,10,11,12,1.0,1.0,1.0*30
$GPRMC,114223.461,A,4316.391,N,00257.375,W,029.2,127.2,131219,000.0,W*60
$GPGGA,114224.461,4316.385,N,00257.367,W,1,12,1.0,0.0,M,0.0,M,,*73
$GPGSA,A,3,01,02,03,04,05,06,07,08,09,10,11,12,1.0,1.0,1.0*30
$GPRMC,114224.461,A,4316.385,N,00257.367,W,029.2,127.2,131219,000.0,W*61
$GPGGA,114225.461,4316.379,N,00257.360,W,1,12,1.0,0.0,M,0.0,M,,*76
$GPGSA,A,3,01,02,03,04,05,06,07,08,09,10,11,12,1.0,1.0,1.0*30
$GPRMC,114225.461,A,4316.379,N,00257.360,W,029.2,133.4,131219,000.0,W*67
$GPGGA,114226.461,4316.372,N,00257.353,W,1,12,1.0,0.0,M,0.0,M,,*7E
$GPGSA,A,3,01,02,03,04,05,06,07,08,09,10,11,12,1.0,1.0,1.0*30
$GPRMC,114226.461,A,4316.372,N,00257.353,W,029.2,133.4,131219,000.0,W*6F
$GPGGA,114227.461,4316.366,N,00257.346,W,1,12,1.0,0.0,M,0.0,M,,*7E
$GPGSA,A,3,01,02,03,04,05,06,07,08,09,10,11,12,1.0,1.0,1.0*30
$GPRMC,114227.461,A,4316.366,N,00257.346,W,029.2,091.1,131219,000.0,W*63
$GPGGA,114228.461,4316.366,N,00257.335,W,1,12,1.0,0.0,M,0.0,M,,*75
$GPGSA,A,3,01,02,03,04,05,06,07,08,09,10,11,12,1.0,1.0,1.0*30
$GPRMC,114228.461,A,4316.366,N,00257.335,W,029.2,093.0,131219,000.0,W*6B
$GPGGA,114229.461,4316.365,N,00257.324,W,1,12,1.0,0.0,M,0.0,M,,*77
$GPGSA,A,3,01,02,03,04,05,06,07,08,09,10,11,12,1.0,1.0,1.0*30
$GPRMC,114229.461,A,4316.365,N,00257.324,W,029.2,093.0,131219,000.0,W*69
$GPGGA,114230.461,4316.365,N,00257.313,W,1,12,1.0,0.0,M,0.0,M,,*7B
$GPGSA,A,3,01,02,03,04,05,06,07,08,09,10,11,12,1.0,1.0,1.0*30
$GPRMC,114230.461,A,4316.365,N,00257.313,W,029.2,093.0,131219,000.0,W*65
$GPGGA,114231.461,4316.364,N,00257.302,W,1,12,1.0,0.0,M,0.0,M,,*7B
$GPGSA,A,3,01,02,03,04,05,06,07,08,09,10,11,12,1.0,1.0,1.0*30
$GPRMC,114231.461,A,4316.364,N,00257.302,W,029.2,102.1,131219,000.0,W*6D
$GPGGA,114232.461,4316.362,N,00257.291,W,1,12,1.0,0.0,M,0.0,M,,*75
$GPGSA,A,3,01,02,03,04,05,06,07,08,09,10,11,12,1.0,1.0,1.0*30
$GPRMC,114232.461,A,4316.362,N,00257.291,W,029.2,102.1,131219,000.0,W*63
$GPGGA,114233.461,4316.360,N,00257.280,W,1,12,1.0,0.0,M,0.0,M,,*76
$GPGSA,A,3,01,02,03,04,05,06,07,08,09,10,11,12,1.0,1.0,1.0*30
$GPRMC,114233.461,A,4316.360,N,00257.280,W,029.2,102.1,131219,000.0,W*60
$GPGGA,114234.461,4316.357,N,00257.270,W,1,12,1.0,0.0,M,0.0,M,,*7A
$GPGSA,A,3,01,02,03,04,05,06,07,08,09,10,11,12,1.0,1.0,1.0*30
$GPRMC,114234.461,A,4316.357,N,00257.270,W,029.2,102.1,131219,000.0,W*6C
$GPGGA,114235.461,4316.355,N,00257.259,W,1,12,1.0,0.0,M,0.0,M,,*72
$GPGSA,A,3,01,02,03,04,05,06,07,08,09,10,11,12,1.0,1.0,1.0*30
$GPRMC,114235.461,A,4316.355,N,00257.259,W,029.2,102.1,131219,000.0,W*64
$GPGGA,114236.461,4316.353,N,00257.248,W,1,12,1.0,0.0,M,0.0,M,,*77
$GPGSA,A,3,01,02,03,04,05,06,07,08,09,10,11,12,1.0,1.0,1.0*30
$GPRMC,114236.461,A,4316.353,N,00257.248,W,029.2,102.1,131219,000.0,W*61
$GPGGA,114237.461,4316.350,N,00257.238,W,1,12,1.0,0.0,M,0.0,M,,*72
$GPGSA,A,3,01,02,03,04,05,06,07,08,09,10,11,12,1.0,1.0,1.0*30
$GPRMC,114237.461,A,4316.350,N,00257.238,W,029.2,102.1,131219,000.0,W*64
$GPGGA,114238.461,4316.348,N,00257.227,W,1,12,1.0,0.0,M,0.0,M,,*7A
$GPGSA,A,3,01,02,03,04,05,06,07,08,09,10,11,12,1.0,1.0,1.0*30
$GPRMC,114238.461,A,4316.348,N,00257.227,W,029.2,102.1,131219,000.0,W*6C
$GPGGA,114239.461,4316.346,N,00257.217,W,1,12,1.0,0.0,M,0.0,M,,*76
$GPGSA,A,3,01,02,03,04,05,06,07,08,09,10,11,12,1.0,1.0,1.0*30
$GPRMC,114239.461,A,4316.346,N,00257.217,W,029.2,102.1,131219,000.0,W*60
$GPGGA,114240.461,4316.344,N,00257.206,W,1,12,1.0,0.0,M,0.0,M,,*7A
$GPGSA,A,3,01,02,03,04,05,06,07,08,09,10,11,12,1.0,1.0,1.0*30
$GPRMC,114240.461,A,4316.344,N,00257.206,W,029.2,102.1,131219,000.0,W*6C
$GPGGA,114241.461,4316.341,N,00257.195,W,1,12,1.0,0.0,M,0.0,M,,*77
$GPGSA,A,3,01,02,03,04,05,06,07,08,09,10,11,12,1.0,1.0,1.0*30
$GPRMC,114241.461,A,4316.341,N,00257.195,W,029.2,102.1,131219,000.0,W*61
$GPGGA,114242.461,4316.339,N,00257.185,W,1,12,1.0,0.0,M,0.0,M,,*7A
$GPGSA,A,3,01,02,03,04,05,06,07,08,09,10,11,12,1.0,1.0,1.0*30
$GPRMC,114242.461,A,4316.339,N,00257.185,W,029.2,102.1,131219,000.0,W*6C
$GPGGA,114243.461,4316.337,N,00257.174,W,1,12,1.0,0.0,M,0.0,M,,*7B
$GPGSA,A,3,01,02,03,04,05,06,07,08,09,10,11,12,1.0,1.0,1.0*30
$GPRMC,114243.461,A,4316.337,N,00257.174,W,029.2,102.1,131219,000.0,W*6D
$GPGGA,114244.461,4316.334,N,00257.163,W,1,12,1.0,0.0,M,0.0,M,,*79
$GPGSA,A,3,01,02,03,04,05,06,07,08,09,10,11,12,1.0,1.0,1.0*30
$GPRMC,114244.461,A,4316.334,N,00257.163,W,029.2,102.1,131219,000.0,W*6F
$GPGGA,114245.461,4316.332,N,00257.153,W,1,12,1.0,0.0,M,0.0,M,,*7D
$GPGSA,A,3,01,02,03,04,05,06,07,08,09,10,11,12,1.0,1.0,1.0*30
$GPRMC,114245.461,A,4316.332,N,00257.153,W,029.2,096.7,131219,000.0,W*61
$GPGGA,114246.461,4316.331,N,00257.142,W,1,12,1.0,0.0,M,0.0,M,,*7D
$GPGSA,A,3,01,02,03,04,05,06,07,08,09,10,11,12,1.0,1.0,1.0*30
$GPRMC,114246.461,A,4316.331,N,00257.142,W,029.2,096.7,131219,000.0,W*61
$GPGGA,114247.461,4316.330,N,00257.131,W,1,12,1.0,0.0,M,0.0,M,,*79
$GPGSA,A,3,01,02,03,04,05,06,07,08,09,10,11,12,1.0,1.0,1.0*30
$GPRMC,114247.461,A,4316.330,N,00257.131,W,029.2,096.7,131219,000.0,W*65
$GPGGA,114248.461,4316.328,N,00257.120,W,1,12,1.0,0.0,M,0.0,M,,*7F
$GPGSA,A,3,01,02,03,04,05,06,07,08,09,10,11,12,1.0,1.0,1.0*30
$GPRMC,114248.461,A,4316.328,N,00257.120,W,029.2,096.7,131219,000.0,W*63
$GPGGA,114249.461,4316.327,N,00257.109,W,1,12,1.0,0.0,M,0.0,M,,*7A
$GPGSA,A,3,01,02,03,04,05,06,07,08,09,10,11,12,1.0,1.0,1.0*30
$GPRMC,114249.461,A,4316.327,N,00257.109,W,029.2,096.7,131219,000.0,W*66
$GPGGA,114250.461,4316.326,N,00257.098,W,1,12,1.0,0.0,M,0.0,M,,*7A
$GPGSA,A,3,01,02,03,04,05,06,07,08,09,10,11,12,1.0,1.0,1.0*30
$GPRMC,114250.461,A,4316.326,N,00257.098,W,029.2,096.7,131219,000.0,W*66
$GPGGA,114251.461,4316.324,N,00257.087,W,1,12,1.0,0.0,M,0.0,M,,*77
$GPGSA,A,3,01,02,03,04,05,06,07,08,09,10,11,12,1.0,1.0,1.0*30
$GPRMC,114251.461,A,4316.324,N,00257.087,W,029.2,096.7,131219,000.0,W*6B
$GPGGA,114252.461,4316.323,N,00257.076,W,1,12,1.0,0.0,M,0.0,M,,*7D
$GPGSA,A,3,01,02,03,04,05,06,07,08,09,10,11,12,1.0,1.0,1.0*30
$GPRMC,114252.461,A,4316.323,N,00257.076,W,029.2,096.7,131219,000.0,W*61
$GPGGA,114253.461,4316.322,N,00257.065,W,1,12,1.0,0.0,M,0.0,M,,*7F
$GPGSA,A,3,01,02,03,04,05,06,07,08,09,10,11,12,1.0,1.0,1.0*30
$GPRMC,114253.461,A,4316.322,N,00257.065,W,029.2,096.7,131219,000.0,W*63
$GPGGA,114254.461,4316.321,N,00257.054,W,1,12,1.0,0.0,M,0.0,M,,*79
$GPGSA,A,3,01,02,03,04,05,06,07,08,09,10,11,12,1.0,1.0,1.0*30
$GPRMC,114254.461,A,4316.321,N,00257.054,W,029.2,096.7,131219,000.0,W*65
$GPGGA,114255.461,4316.319,N,00257.043,W,1,12,1.0,0.0,M,0.0,M,,*75
$GPGSA,A,3,01,02,03,04,05,06,07,08,09,10,11,12,1.0,1.0,1.0*30
$GPRMC,114255.461,A,4316.319,N,00257.043,W,029.2,096.7,131219,000.0,W*69
$GPGGA,114256.461,4316.318,N,00257.032,W,1,12,1.0,0.0,M,0.0,M,,*71
$GPGSA,A,3,01,02,03,04,05,06,07,08,09,10,11,12,1.0,1.0,1.0*30
$GPRMC,114256.461,A,4316.318,N,00257.032,W,029.2,096.7,131219,000.0,W*6D
$GPGGA,114257.461,4316.317,N,00257.021,W,1,12,1.0,0.0,M,0.0,M,,*7D
$GPGSA,A,3,01,02,03,04,05,06,07,08,09,10,11,12,1.0,1.0,1.0*30
$GPRMC,114257.461,A,4316.317,N,00257.021,W,029.2,091.9,131219,000.0,W*68
$GPGGA,114258.461,4316.316,N,00257.010,W,1,12,1.0,0.0,M,0.0,M,,*71
$GPGSA,A,3,01,02,03,04,05,06,07,08,09,10,11,12,1.0,1.0,1.0*30
$GPRMC,114258.461,A,4316.316,N,00257.010,W,029.2,091.9,131219,000.0,W*64
$GPGGA,114259.461,4316.316,N,00256.999,W,1,12,1.0,0.0,M,0.0,M,,*79
$GPGSA,A,3,01,02,03,04,05,06,07,08,09,10,11,12,1.0,1.0,1.0*30
$GPRMC,114259.461,A,4316.316,N,00256.999,W,029.2,091.9,131219,000.0,W*6C
$GPGGA,114300.461,4316.316,N,00256.987,W,1,12,1.0,0.0,M,0.0,M,,*7B
$GPGSA,A,3,01,02,03,04,05,06,07,08,09,10,11,12,1.0,1.0,1.0*30
$GPRMC,114300.461,A,4316.316,N,00256.987,W,029.2,091.9,131219,000.0,W*6E
$GPGGA,114301.461,4316.315,N,00256.976,W,1,12,1.0,0.0,M,0.0,M,,*77
$GPGSA,A,3,01,02,03,04,05,06,07,08,09,10,11,12,1.0,1.0,1.0*30
$GPRMC,114301.461,A,4316.315,N,00256.976,W,029.2,091.9,131219,000.0,W*62
$GPGGA,114302.461,4316.315,N,00256.965,W,1,12,1.0,0.0,M,0.0,M,,*76
$GPGSA,A,3,01,02,03,04,05,06,07,08,09,10,11,12,1.0,1.0,1.0*30
$GPRMC,114302.461,A,4316.315,N,00256.965,W,029.2,091.9,131219,000.0,W*63
$GPGGA,114303.461,4316.314,N,00256.954,W,1,12,1.0,0.0,M,0.0,M,,*74
$GPGSA,A,3,01,02,03,04,05,06,07,08,09,10,11,12,1.0,1.0,1.0*30
$GPRMC,114303.461,A,4316.314,N,00256.954,W,029.2,091.9,131219,000.0,W*61
$GPGGA,114304.461,4316.314,N,00256.943,W,1,12,1.0,0.0,M,0.0,M,,*75
$GPGSA,A,3,01,02,03,04,05,06,07,08,09,10,11,12,1.0,1.0,1.0*30
$GPRMC,114304.461,A,4316.314,N,00256.943,W,029.2,091.9,131219,000.0,W*60
$GPGGA,114305.461,4316.314,N,00256.932,W,1,12,1.0,0.0,M,0.0,M,,*72
$GPGSA,A,3,01,02,03,04,05,06,07,08,09,10,11,12,1.0,1.0,1.0*30
$GPRMC,114305.461,A,4316.314,N,00256.932,W,029.2,091.9,131219,000.0,W*67
$GPGGA,114306.461,4316.313,N,00256.921,W,1,12,1.0,0.0,M,0.0,M,,*74
$GPGSA,A,3,01,02,03,04,05,06,07,08,09,10,11,12,1.0,1.0,1.0*30
$GPRMC,114306.461,A,4316.313,N,00256.921,W,029.2,091.9,131219,000.0,W*61
$GPGGA,114307.461,4316.313,N,00256.910,W,1,12,1.0,0.0,M,0.0,M,,*77
$GPGSA,A,3,01,02,03,04,05,06,07,08,09,10,11,12,1.0,1.0,1.0*30
$GPRMC,114307.461,A,4316.313,N,00256.910,W,029.2,091.9,131219,000.0,W*62
$GPGGA,114308.461,4316.313,N,00256.899,W,1,12,1.0,0.0,M,0.0,M,,*78
$GPGSA,A,3,01,02,03,04,05,06,07,08,09,10,11,12,1.0,1.0,1.0*30
$GPRMC,114308.461,A,4316.313,N,00256.899,W,029.2,091.9,131219,000.0,W*6D
$GPGGA,114309.461,4316.312,N,00256.888,W,1,12,1.0,0.0,M,0.0,M,,*78
$GPGSA,A,3,01,02,03,04,05,06,07,08,09,10,11,12,1.0,1.0,1.0*30
$GPRMC,114309.461,A,4316.312,N,00256.888,W,029.2,091.9,131219,000.0,W*6D
$GPGGA,114310.461,4316.312,N,00256.876,W,1,12,1.0,0.0,M,0.0,M,,*71
$GPGSA,A,3,01,02,03,04,05,06,07,08,09,10,11,12,1.0,1.0,1.0*30
$GPRMC,114310.461,A,4316.312,N,00256.876,W,029.2,091.9,131219,000.0,W*64
$GPGGA,114311.461,4316.312,N,00256.865,W,1,12,1.0,0.0,M,0.0,M,,*72
$GPGSA,A,3,01,02,03,04,05,06,07,08,09,10,11,12,1.0,1.0,1.0*30
$GPRMC,114311.461,A,4316.312,N,00256.865,W,029.2,091.9,131219,000.0,W*67
$GPGGA,114312.461,4316.311,N,00256.854,W,1,12,1.0,0.0,M,0.0,M,,*70
$GPGSA,A,3,01,02,03,04,05,06,07,08,09,10,11,12,1.0,1.0,1.0*30
$GPRMC,114312.461,A,4316.311,N,00256.854,W,029.2,091.9,131219,000.0,W*65
$GPGGA,114313.461,4316.311,N,00256.843,W,1,12,1.0,0.0,M,0.0,M,,*77
$GPGSA,A,3,01,02,03,04,05,06,07,08,09,10,11,12,1.0,1.0,1.0*30
$GPRMC,114313.461,A,4316.311,N,00256.843,W,029.2,091.9,131219,000.0,W*62
$GPGGA,114314.461,4316.310,N,00256.832,W,1,12,1.0,0.0,M,0.0,M,,*77
$GPGSA,A,3,01,02,03,04,05,06,07,08,09,10,11,12,1.0,1.0,1.0*30
$GPRMC,114314.461,A,4316.310,N,00256.832,W,029.2,091.9,131219,000.0,W*62
$GPGGA,114315.461,4316.310,N,00256.821,W,1,12,1.0,0.0,M,0.0,M,,*74
$GPGSA,A,3,01,02,03,04,05,06,07,08,09,10,11,12,1.0,1.0,1.0*30
$GPRMC,114315.461,A,4316.310,N,00256.821,W,029.2,091.9,131219,000.0,W*61
$GPGGA,114316.461,4316.310,N,00256.810,W,1,12,1.0,0.0,M,0.0,M,,*75
$GPGSA,A,3,01,02,03,04,05,06,07,08,09,10,11,12,1.0,1.0,1.0*30
$GPRMC,114316.461,A,4316.310,N,00256.810,W,029.2,091.9,131219,000.0,W*60
$GPGGA,114317.461,4316.309,N,00256.799,W,1,12,1.0,0.0,M,0.0,M,,*72
$GPGSA,A,3,01,02,03,04,05,06,07,08,09,10,11,12,1.0,1.0,1.0*30
$GPRMC,114317.461,A,4316.309,N,00256.799,W,029.2,091.9,131219,000.0,W*67
$GPGGA,114318.461,4316.309,N,00256.788,W,1,12,1.0,0.0,M,0.0,M,,*7D
$GPGSA,A,3,01,02,03,04,05,06,07,08,09,10,11,12,1.0,1.0,1.0*30
$GPRMC,114318.461,A,4316.309,N,00256.788,W,029.2,091.9,131219,000.0,W*68
$GPGGA,114319.461,4316.309,N,00256.776,W,1,12,1.0,0.0,M,0.0,M,,*7D
$GPGSA,A,3,01,02,03,04,05,06,07,08,09,10,11,12,1.0,1.0,1.0*30
$GPRMC,114319.461,A,4316.309,N,00256.776,W,029.2,091.9,131219,000.0,W*68
$GPGGA,114320.461,4316.308,N,00256.765,W,1,12,1.0,0.0,M,0.0,M,,*74
$GPGSA,A,3,01,02,03,04,05,06,07,08,09,10,11,12,1.0,1.0,1.0*30
$GPRMC,114320.461,A,4316.308,N,00256.765,W,029.2,091.9,131219,000.0,W*61
$GPGGA,114321.461,4316.308,N,00256.754,W,1,12,1.0,0.0,M,0.0,M,,*77
$GPGSA,A,3,01,02,03,04,05,06,07,08,09,10,11,12,1.0,1.0,1.0*30
$GPRMC,114321.461,A,4316.308,N,00256.754,W,029.2,091.9,131219,000.0,W*62
$GPGGA,114322.461,4316.308,N,00256.743,W,1,12,1.0,0.0,M,0.0,M,,*72
$GPGSA,A,3,01,02,03,04,05,06,07,08,09,10,11,12,1.0,1.0,1.0*30
$GPRMC,114322.461,A,4316.308,N,00256.743,W,029.2,091.9,131219,000.0,W*67
$GPGGA,114323.461,4316.307,N,00256.732,W,1,12,1.0,0.0,M,0.0,M,,*7A
$GPGSA,A,3,01,02,03,04,05,06,07,08,09,10,11,12,1.0,1.0,1.0*30
$GPRMC,114323.461,A,4316.307,N,00256.732,W,029.2,091.9,131219,000.0,W*6F
$GPGGA,114324.461,4316.307,N,00256.721,W,1,12,1.0,0.0,M,0.0,M,,*7F
$GPGSA,A,3,01,02,03,04,05,06,07,08,09,10,11,12,1.0,1.0,1.0*30
$GPRMC,114324.461,A,4316.307,N,00256.721,W,029.2,109.4,131219,000.0,W*67
$GPGGA,114325.461,4316.303,N,00256.711,W,1,12,1.0,0.0,M,0.0,M,,*79
$GPGSA,A,3,01,02,03,04,05,06,07,08,09,10,11,12,1.0,1.0,1.0*30
$GPRMC,114325.461,A,4316.303,N,00256.711,W,029.2,109.4,131219,000.0,W*61
$GPGGA,114326.461,4316.300,N,00256.701,W,1,12,1.0,0.0,M,0.0,M,,*78
$GPGSA,A,3,01,02,03,04,05,06,07,08,09,10,11,12,1.0,1.0,1.0*30
$GPRMC,114326.461,A,4316.300,N,00256.701,W,002.9,118.3,131219,000.0,W*65
$GPGGA,114327.461,4316.299,N,00256.700,W,1,12,1.0,0.0,M,0.0,M,,*79
$GPGSA,A,3,01,02,03,04,05,06,07,08,09,10,11,12,1.0,1.0,1.0*30
$GPRMC,114327.461,A,4316.299,N,00256.700,W,002.9,000.0,131219,000.0,W*6F
$GPGGA,114328.461,4316.299,N,00256.700,W,1,12,1.0,0.0,M,0.0,M,,*76
$GPGSA,A,3,01,02,03,04,05,06,07,08,09,10,11,12,1.0,1.0,1.0*30
$GPRMC,114328.461,A,4316.299,N,00256.700,W,000.0,000.0,131219,000.0,W*6B
